SourceFile,ExifToolVersion,FileName,Directory,FileSize,FileModifyDate,FileAccessDate,FileCreateDate,FilePermissions,FileType,FileTypeExtension,MIMEType,ExifByteOrder,ImageDescription,Make,Model,Orientation,XResolution,YResolution,ResolutionUnit,Software,ModifyDate,YCbCrPositioning,ExposureTime,FNumber,ExposureProgram,ISO,SensitivityType,ExifVersion,DateTimeOriginal,CreateDate,ComponentsConfiguration,ShutterSpeedValue,ApertureValue,ExposureCompensation,MaxApertureValue,MeteringMode,LightSource,Flash,FocalLength,Warning,FlashpixVersion,ColorSpace,ExifImageWidth,ExifImageHeight,InteropIndex,InteropVersion,FileSource,SceneType,ExposureMode,WhiteBalance,DigitalZoomRatio,FocalLengthIn35mmFormat,SceneCaptureType,GainControl,Contrast,Saturation,Sharpness,DeviceSettingDescription,SerialNumber,LensInfo,GPSVersionID,GPSLatitudeRef,GPSLongitudeRef,GPSAltitudeRef,GpsStatus,GPSMapDatum,XPComment,XPKeywords,Compression,ThumbnailOffset,ThumbnailLength,About,Format,AltitudeType,AbsoluteAltitude,RelativeAltitude,GimbalRollDegree,GimbalYawDegree,GimbalPitchDegree,FlightRollDegree,FlightYawDegree,FlightPitchDegree,FlightXSpeed,FlightYSpeed,FlightZSpeed,CamReverse,GimbalReverse,SelfData,RtkFlag,RtkStdLon,RtkStdLat,RtkStdHgt,LRFStatus,LRFTargetDistance,LRFTargetLon,LRFTargetLat,LRFTargetAlt,LRFTargetAbsAlt,Version,HasSettings,HasCrop,AlreadyApplied,MPFVersion,NumberOfImages,MPImageFlags,MPImageFormat,MPImageType,MPImageLength,MPImageStart,DependentImage1EntryNumber,DependentImage2EntryNumber,ImageUIDList,TotalFrames,ImageWidth,ImageHeight,EncodingProcess,BitsPerSample,ColorComponents,YCbCrSubSampling,Aperture,ImageSize,Megapixels,ScaleFactor35efl,ShutterSpeed,ThumbnailImage,GPSAltitude,GPSLatitude,GPSLongitude,PreviewImage,CircleOfConfusion,FOV,FocalLength35efl,GPSPosition,HyperfocalDistance,LightValue
C:/Users/Kristopher/Desktop/test_images/DJI_20210121095513_0001_W.JPG,12.19,DJI_20210121095513_0001_W.JPG,C:/Users/Kristopher/Desktop/test_images,7.5 MiB,2021:01:21 10:55:14-05:00,2022:04:16 18:42:03-04:00,2022:04:09 13:48:47-04:00,-rw-rw-rw-,JPEG,jpg,image/jpeg,"Little-endian (Intel, II)",default,DJI,ZH20T,Horizontal (normal),72,72,inches,01.00.02.11,2021-01-21 09:55:13,Co-sited,1/80,2.8,Program AE,100,Recommended Exposure Index,0230,2021-01-21 09:55:13,2021-01-21 09:55:13,"Y, Cb, Cr, -",1/80,2.8,-0.3,2.8,Center-weighted average,Unknown,No Flash,4.5 mm,[minor] Bad MakerNotes directory,0100,sRGB,4056,3040,R98 - DCF basic file (sRGB),0100,Digital Camera,Directly photographed,Auto,Auto,1,24 mm,Standard,None,Normal,Normal,Normal,"(Binary data 4 bytes, use -b option to extract)",1W9DH8R0000038,4.5mm f/2.8,2.3.0.0,North,West,Below Sea Level,RTK,WGS-84,0.9.142,single,JPEG,24974,10219,DJI Meta Data,image/jpg,RtkAlt,-6.888,+14.024,+0.00,+47.90,-63.00,+3.40,+47.40,+10.50,0.7,0.3,0.0,0,0,,50,0.02045,0.02050,0.03865,TooFar,0.000,0.0000000,0.0000000,0.000,0.000,7.0,False,False,False,0100,2,Dependent child image,JPEG,Large Thumbnail (VGA equivalent),828082,6994011,0,0,"(Binary data 66 bytes, use -b option to extract)",1,4056,3040,"Baseline DCT, Huffman coding",8,3,YCbCr4:2:0 (2 2),2.8,4056x3040,12.3,5.3,1/80,"(Binary data 10219 bytes, use -b option to extract)",6.8 m Below Sea Level,"41 deg 26' 54.02"" N","71 deg 24' 0.20"" W","(Binary data 828082 bytes, use -b option to extract)",0.006 mm,73.7 deg,4.5 mm (35 mm equivalent: 24.0 mm),"41 deg 26' 54.02"" N, 71 deg 24' 0.20"" W",1.28 m,9.3
C:/Users/Kristopher/Desktop/test_images/DJI_20210121095518_0002_W.JPG,12.19,DJI_20210121095518_0002_W.JPG,C:/Users/Kristopher/Desktop/test_images,7.2 MiB,2021:01:21 10:55:18-05:00,2022:04:16 18:42:03-04:00,2022:04:09 13:48:47-04:00,-rw-rw-rw-,JPEG,jpg,image/jpeg,"Little-endian (Intel, II)",default,DJI,ZH20T,Horizontal (normal),72,72,inches,01.00.02.11,2021-01-21 09:55:18,Co-sited,1/125,2.8,Program AE,100,Recommended Exposure Index,0230,2021-01-21 09:55:18,2021-01-21 09:55:18,"Y, Cb, Cr, -",1/125,2.8,-0.3,2.8,Center-weighted average,Unknown,No Flash,4.5 mm,[minor] Bad MakerNotes directory,0100,sRGB,4056,3040,R98 - DCF basic file (sRGB),0100,Digital Camera,Directly photographed,Auto,Auto,1,24 mm,Standard,None,Normal,Normal,Normal,"(Binary data 4 bytes, use -b option to extract)",1W9DH8R0000038,4.5mm f/2.8,2.3.0.0,North,West,Below Sea Level,RTK,WGS-84,0.9.142,single,JPEG,24974,9930,DJI Meta Data,image/jpg,RtkAlt,-6.928,+13.984,+0.00,+48.10,-89.90,+3.80,+48.40,+5.60,1.7,1.9,0.0,0,0,,50,0.01980,0.01992,0.03797,Normal,22.900,-71.3999863,41.4483910,-8.888,-29.800,7.0,False,False,False,0100,2,Dependent child image,JPEG,Large Thumbnail (VGA equivalent),792636,6750466,0,0,"(Binary data 66 bytes, use -b option to extract)",1,4056,3040,"Baseline DCT, Huffman coding",8,3,YCbCr4:2:0 (2 2),2.8,4056x3040,12.3,5.3,1/125,"(Binary data 9930 bytes, use -b option to extract)",6.9 m Below Sea Level,"41 deg 26' 54.22"" N","71 deg 23' 59.93"" W","(Binary data 792636 bytes, use -b option to extract)",0.006 mm,73.7 deg,4.5 mm (35 mm equivalent: 24.0 mm),"41 deg 26' 54.22"" N, 71 deg 23' 59.93"" W",1.28 m,9.9
C:/Users/Kristopher/Desktop/test_images/DJI_20210121095521_0003_W.JPG,12.19,DJI_20210121095521_0003_W.JPG,C:/Users/Kristopher/Desktop/test_images,7.3 MiB,2021:01:21 10:55:22-05:00,2022:04:16 18:42:03-04:00,2022:04:09 13:48:47-04:00,-rw-rw-rw-,JPEG,jpg,image/jpeg,"Little-endian (Intel, II)",default,DJI,ZH20T,Horizontal (normal),72,72,inches,01.00.02.11,2021-01-21 09:55:21,Co-sited,1/125,2.8,Program AE,100,Recommended Exposure Index,0230,2021-01-21 09:55:21,2021-01-21 09:55:21,"Y, Cb, Cr, -",1/125,2.8,-0.3,2.8,Center-weighted average,Unknown,No Flash,4.5 mm,[minor] Bad MakerNotes directory,0100,sRGB,4056,3040,R98 - DCF basic file (sRGB),0100,Digital Camera,Directly photographed,Auto,Auto,1,24 mm,Standard,None,Normal,Normal,Normal,"(Binary data 4 bytes, use -b option to extract)",1W9DH8R0000038,4.5mm f/2.8,2.3.0.0,North,West,Below Sea Level,RTK,WGS-84,0.9.142,single,JPEG,24974,10160,DJI Meta Data,image/jpg,RtkAlt,-6.916,+13.996,+0.00,+48.10,-89.90,+3.20,+47.40,+5.20,1.6,1.8,0.0,0,0,,50,0.02020,0.02033,0.03827,Normal,22.900,-71.3999252,41.4484329,-8.888,-29.800,7.0,False,False,False,0100,2,Dependent child image,JPEG,Large Thumbnail (VGA equivalent),800186,6824085,0,0,"(Binary data 66 bytes, use -b option to extract)",1,4056,3040,"Baseline DCT, Huffman coding",8,3,YCbCr4:2:0 (2 2),2.8,4056x3040,12.3,5.3,1/125,"(Binary data 10160 bytes, use -b option to extract)",6.9 m Below Sea Level,"41 deg 26' 54.37"" N","71 deg 23' 59.71"" W","(Binary data 800186 bytes, use -b option to extract)",0.006 mm,73.7 deg,4.5 mm (35 mm equivalent: 24.0 mm),"41 deg 26' 54.37"" N, 71 deg 23' 59.71"" W",1.28 m,9.9
C:/Users/Kristopher/Desktop/test_images/DJI_20210121095524_0004_W.JPG,12.19,DJI_20210121095524_0004_W.JPG,C:/Users/Kristopher/Desktop/test_images,7.4 MiB,2021:01:21 10:55:24-05:00,2022:04:16 18:42:03-04:00,2022:04:09 13:48:47-04:00,-rw-rw-rw-,JPEG,jpg,image/jpeg,"Little-endian (Intel, II)",default,DJI,ZH20T,Horizontal (normal),72,72,inches,01.00.02.11,2021-01-21 09:55:24,Co-sited,1/125,2.8,Program AE,100,Recommended Exposure Index,0230,2021-01-21 09:55:24,2021-01-21 09:55:24,"Y, Cb, Cr, -",1/125,2.8,-0.3,2.8,Center-weighted average,Fine Weather,No Flash,4.5 mm,[minor] Bad MakerNotes directory,0100,sRGB,4056,3040,R98 - DCF basic file (sRGB),0100,Digital Camera,Directly photographed,Auto,Auto,1,24 mm,Standard,None,Normal,Normal,Normal,"(Binary data 4 bytes, use -b option to extract)",1W9DH8R0000038,4.5mm f/2.8,2.3.0.0,North,West,Below Sea Level,RTK,WGS-84,0.9.142,single,JPEG,24974,10493,DJI Meta Data,image/jpg,RtkAlt,-6.923,+13.989,+0.00,+48.10,-89.90,+3.00,+47.80,+4.50,1.5,1.7,0.0,0,0,,50,0.01966,0.01981,0.03778,Normal,23.000,-71.3998566,41.4484787,-8.988,-29.900,7.0,False,False,False,0100,2,Dependent child image,JPEG,Large Thumbnail (VGA equivalent),818413,6926653,0,0,"(Binary data 66 bytes, use -b option to extract)",1,4056,3040,"Baseline DCT, Huffman coding",8,3,YCbCr4:2:0 (2 2),2.8,4056x3040,12.3,5.3,1/125,"(Binary data 10493 bytes, use -b option to extract)",6.9 m Below Sea Level,"41 deg 26' 54.53"" N","71 deg 23' 59.47"" W","(Binary data 818413 bytes, use -b option to extract)",0.006 mm,73.7 deg,4.5 mm (35 mm equivalent: 24.0 mm),"41 deg 26' 54.53"" N, 71 deg 23' 59.47"" W",1.28 m,9.9
C:/Users/Kristopher/Desktop/test_images/DJI_20210121095527_0005_W.JPG,12.19,DJI_20210121095527_0005_W.JPG,C:/Users/Kristopher/Desktop/test_images,7.7 MiB,2021:01:21 10:55:28-05:00,2022:04:16 18:42:03-04:00,2022:04:09 13:48:47-04:00,-rw-rw-rw-,JPEG,jpg,image/jpeg,"Little-endian (Intel, II)",default,DJI,ZH20T,Horizontal (normal),72,72,inches,01.00.02.11,2021-01-21 09:55:27,Co-sited,1/160,2.8,Program AE,100,Recommended Exposure Index,0230,2021-01-21 09:55:27,2021-01-21 09:55:27,"Y, Cb, Cr, -",1/160,2.8,-0.3,2.8,Center-weighted average,Fine Weather,No Flash,4.5 mm,[minor] Bad MakerNotes directory,0100,sRGB,4056,3040,R98 - DCF basic file (sRGB),0100,Digital Camera,Directly photographed,Auto,Auto,1,24 mm,Standard,None,Normal,Normal,Normal,"(Binary data 4 bytes, use -b option to extract)",1W9DH8R0000038,4.5mm f/2.8,2.3.0.0,North,West,Below Sea Level,RTK,WGS-84,0.9.142,single,JPEG,24974,11511,DJI Meta Data,image/jpg,RtkAlt,-6.918,+13.995,+0.00,+48.10,-89.90,+4.70,+48.60,+4.80,1.6,1.7,0.0,0,0,,50,0.02015,0.02016,0.03809,Normal,22.800,-71.3997955,41.4485245,-8.788,-29.700,7.0,False,False,False,0100,2,Dependent child image,JPEG,Large Thumbnail (VGA equivalent),862225,7217833,0,0,"(Binary data 66 bytes, use -b option to extract)",1,4056,3040,"Baseline DCT, Huffman coding",8,3,YCbCr4:2:0 (2 2),2.8,4056x3040,12.3,5.3,1/160,"(Binary data 11511 bytes, use -b option to extract)",6.9 m Below Sea Level,"41 deg 26' 54.70"" N","71 deg 23' 59.24"" W","(Binary data 862225 bytes, use -b option to extract)",0.006 mm,73.7 deg,4.5 mm (35 mm equivalent: 24.0 mm),"41 deg 26' 54.70"" N, 71 deg 23' 59.24"" W",1.28 m,10.3
C:/Users/Kristopher/Desktop/test_images/DJI_20210121095530_0006_W.JPG,12.19,DJI_20210121095530_0006_W.JPG,C:/Users/Kristopher/Desktop/test_images,7.8 MiB,2021:01:21 10:55:30-05:00,2022:04:16 18:42:03-04:00,2022:04:09 13:48:47-04:00,-rw-rw-rw-,JPEG,jpg,image/jpeg,"Little-endian (Intel, II)",default,DJI,ZH20T,Horizontal (normal),72,72,inches,01.00.02.11,2021-01-21 09:55:30,Co-sited,1/240,2.8,Program AE,100,Recommended Exposure Index,0230,2021-01-21 09:55:30,2021-01-21 09:55:30,"Y, Cb, Cr, -",1/240,2.8,-0.3,2.8,Center-weighted average,Fine Weather,No Flash,4.5 mm,[minor] Bad MakerNotes directory,0100,sRGB,4056,3040,R98 - DCF basic file (sRGB),0100,Digital Camera,Directly photographed,Auto,Auto,1,24 mm,Standard,None,Normal,Normal,Normal,"(Binary data 4 bytes, use -b option to extract)",1W9DH8R0000038,4.5mm f/2.8,2.3.0.0,North,West,Below Sea Level,RTK,WGS-84,0.9.142,single,JPEG,24974,11945,DJI Meta Data,image/jpg,RtkAlt,-6.893,+14.020,+0.00,+48.10,-89.90,+4.40,+48.00,+5.40,1.5,1.8,0.0,0,0,,50,0.02003,0.02011,0.03807,Normal,22.900,-71.3997269,41.4485664,-8.788,-29.700,7.0,False,False,False,0100,2,Dependent child image,JPEG,Large Thumbnail (VGA equivalent),876014,7313485,0,0,"(Binary data 66 bytes, use -b option to extract)",1,4056,3040,"Baseline DCT, Huffman coding",8,3,YCbCr4:2:0 (2 2),2.8,4056x3040,12.3,5.3,1/240,"(Binary data 11945 bytes, use -b option to extract)",6.8 m Below Sea Level,"41 deg 26' 54.84"" N","71 deg 23' 59.02"" W","(Binary data 876014 bytes, use -b option to extract)",0.006 mm,73.7 deg,4.5 mm (35 mm equivalent: 24.0 mm),"41 deg 26' 54.84"" N, 71 deg 23' 59.02"" W",1.28 m,10.9
C:/Users/Kristopher/Desktop/test_images/DJI_20210121095533_0007_W.JPG,12.19,DJI_20210121095533_0007_W.JPG,C:/Users/Kristopher/Desktop/test_images,8.3 MiB,2021:01:21 10:55:34-05:00,2022:04:16 18:42:03-04:00,2022:04:09 13:48:47-04:00,-rw-rw-rw-,JPEG,jpg,image/jpeg,"Little-endian (Intel, II)",default,DJI,ZH20T,Horizontal (normal),72,72,inches,01.00.02.11,2021-01-21 09:55:33,Co-sited,1/350,2.8,Program AE,100,Recommended Exposure Index,0230,2021-01-21 09:55:33,2021-01-21 09:55:33,"Y, Cb, Cr, -",1/350,2.8,-0.3,2.8,Center-weighted average,Fine Weather,No Flash,4.5 mm,[minor] Bad MakerNotes directory,0100,sRGB,4056,3040,R98 - DCF basic file (sRGB),0100,Digital Camera,Directly photographed,Auto,Auto,1,24 mm,Standard,None,Normal,Normal,Normal,"(Binary data 4 bytes, use -b option to extract)",1W9DH8R0000038,4.5mm f/2.8,2.3.0.0,North,West,Below Sea Level,RTK,WGS-84,0.9.142,single,JPEG,24974,12327,DJI Meta Data,image/jpg,RtkAlt,-6.861,+14.051,+0.00,+48.10,-89.90,+4.30,+48.00,+5.60,1.5,1.8,0.0,0,0,,50,0.01994,0.01999,0.03790,Normal,22.800,-71.3996582,41.4486122,-8.688,-29.600,7.0,False,False,False,0100,2,Dependent child image,JPEG,Large Thumbnail (VGA equivalent),915910,7766706,0,0,"(Binary data 66 bytes, use -b option to extract)",1,4056,3040,"Baseline DCT, Huffman coding",8,3,YCbCr4:2:0 (2 2),2.8,4056x3040,12.3,5.3,1/350,"(Binary data 12327 bytes, use -b option to extract)",6.8 m Below Sea Level,"41 deg 26' 55.01"" N","71 deg 23' 58.77"" W","(Binary data 915910 bytes, use -b option to extract)",0.006 mm,73.7 deg,4.5 mm (35 mm equivalent: 24.0 mm),"41 deg 26' 55.01"" N, 71 deg 23' 58.77"" W",1.28 m,11.4
C:/Users/Kristopher/Desktop/test_images/DJI_20210121095536_0008_W.JPG,12.19,DJI_20210121095536_0008_W.JPG,C:/Users/Kristopher/Desktop/test_images,8.9 MiB,2021:01:21 10:55:36-05:00,2022:04:16 18:42:03-04:00,2022:04:09 13:48:47-04:00,-rw-rw-rw-,JPEG,jpg,image/jpeg,"Little-endian (Intel, II)",default,DJI,ZH20T,Horizontal (normal),72,72,inches,01.00.02.11,2021-01-21 09:55:36,Co-sited,1/400,2.8,Program AE,100,Recommended Exposure Index,0230,2021-01-21 09:55:36,2021-01-21 09:55:36,"Y, Cb, Cr, -",1/400,2.8,-0.3,2.8,Center-weighted average,Daylight,No Flash,4.5 mm,[minor] Bad MakerNotes directory,0100,sRGB,4056,3040,R98 - DCF basic file (sRGB),0100,Digital Camera,Directly photographed,Auto,Auto,1,24 mm,Standard,None,Normal,Normal,Normal,"(Binary data 4 bytes, use -b option to extract)",1W9DH8R0000038,4.5mm f/2.8,2.3.0.0,North,West,Below Sea Level,RTK,WGS-84,0.9.142,single,JPEG,24974,12925,DJI Meta Data,image/jpg,RtkAlt,-6.874,+14.038,+0.00,+48.10,-89.90,+3.80,+48.00,+5.60,1.5,1.8,0.0,0,0,,50,0.02025,0.02031,0.03812,Normal,23.000,-71.3995972,41.4486542,-8.888,-29.800,7.0,False,False,False,0100,2,Dependent child image,JPEG,Large Thumbnail (VGA equivalent),969813,8318525,0,0,"(Binary data 66 bytes, use -b option to extract)",1,4056,3040,"Baseline DCT, Huffman coding",8,3,YCbCr4:2:0 (2 2),2.8,4056x3040,12.3,5.3,1/400,"(Binary data 12925 bytes, use -b option to extract)",6.8 m Below Sea Level,"41 deg 26' 55.16"" N","71 deg 23' 58.54"" W","(Binary data 969813 bytes, use -b option to extract)",0.006 mm,73.7 deg,4.5 mm (35 mm equivalent: 24.0 mm),"41 deg 26' 55.16"" N, 71 deg 23' 58.54"" W",1.28 m,11.6
C:/Users/Kristopher/Desktop/test_images/DJI_20210121095539_0009_W.JPG,12.19,DJI_20210121095539_0009_W.JPG,C:/Users/Kristopher/Desktop/test_images,9.2 MiB,2021:01:21 10:55:40-05:00,2022:04:16 18:42:03-04:00,2022:04:09 13:48:47-04:00,-rw-rw-rw-,JPEG,jpg,image/jpeg,"Little-endian (Intel, II)",default,DJI,ZH20T,Horizontal (normal),72,72,inches,01.00.02.11,2021-01-21 09:55:39,Co-sited,1/500,2.8,Program AE,100,Recommended Exposure Index,0230,2021-01-21 09:55:39,2021-01-21 09:55:39,"Y, Cb, Cr, -",1/500,2.8,-0.3,2.8,Center-weighted average,Daylight,No Flash,4.5 mm,[minor] Bad MakerNotes directory,0100,sRGB,4056,3040,R98 - DCF basic file (sRGB),0100,Digital Camera,Directly photographed,Auto,Auto,1,24 mm,Standard,None,Normal,Normal,Normal,"(Binary data 4 bytes, use -b option to extract)",1W9DH8R0000038,4.5mm f/2.8,2.3.0.0,North,West,Below Sea Level,RTK,WGS-84,0.9.142,single,JPEG,24974,12698,DJI Meta Data,image/jpg,RtkAlt,-6.954,+13.958,+0.00,+48.10,-89.90,+4.50,+48.10,+5.90,1.5,1.7,0.0,0,0,,50,0.01982,0.01991,0.03759,Normal,22.500,-71.3995285,41.4487000,-8.588,-29.500,7.0,False,False,False,0100,2,Dependent child image,JPEG,Large Thumbnail (VGA equivalent),977258,8665870,0,0,"(Binary data 66 bytes, use -b option to extract)",1,4056,3040,"Baseline DCT, Huffman coding",8,3,YCbCr4:2:0 (2 2),2.8,4056x3040,12.3,5.3,1/500,"(Binary data 12698 bytes, use -b option to extract)",6.9 m Below Sea Level,"41 deg 26' 55.32"" N","71 deg 23' 58.30"" W","(Binary data 977258 bytes, use -b option to extract)",0.006 mm,73.7 deg,4.5 mm (35 mm equivalent: 24.0 mm),"41 deg 26' 55.32"" N, 71 deg 23' 58.30"" W",1.28 m,11.9
C:/Users/Kristopher/Desktop/test_images/DJI_20210121095543_0010_W.JPG,12.19,DJI_20210121095543_0010_W.JPG,C:/Users/Kristopher/Desktop/test_images,8.7 MiB,2021:01:21 10:55:42-05:00,2022:04:16 18:42:03-04:00,2022:04:09 13:48:47-04:00,-rw-rw-rw-,JPEG,jpg,image/jpeg,"Little-endian (Intel, II)",default,DJI,ZH20T,Horizontal (normal),72,72,inches,01.00.02.11,2021-01-21 09:55:43,Co-sited,1/640,2.8,Program AE,100,Recommended Exposure Index,0230,2021-01-21 09:55:43,2021-01-21 09:55:43,"Y, Cb, Cr, -",1/640,2.8,-0.3,2.8,Center-weighted average,Daylight,No Flash,4.5 mm,[minor] Bad MakerNotes directory,0100,sRGB,4056,3040,R98 - DCF basic file (sRGB),0100,Digital Camera,Directly photographed,Auto,Auto,1,24 mm,Standard,None,Normal,Normal,Normal,"(Binary data 4 bytes, use -b option to extract)",1W9DH8R0000038,4.5mm f/2.8,2.3.0.0,North,West,Below Sea Level,RTK,WGS-84,0.9.142,single,JPEG,24974,12125,DJI Meta Data,image/jpg,RtkAlt,-6.964,+13.948,+0.00,+48.10,-89.90,+3.70,+48.20,+5.70,1.5,1.7,0.0,0,0,,50,0.01935,0.01945,0.03709,Normal,22.000,-71.3994598,41.4487457,-8.088,-29.000,7.0,False,False,False,0100,2,Dependent child image,JPEG,Large Thumbnail (VGA equivalent),936628,8230155,0,0,"(Binary data 66 bytes, use -b option to extract)",1,4056,3040,"Baseline DCT, Huffman coding",8,3,YCbCr4:2:0 (2 2),2.8,4056x3040,12.3,5.3,1/640,"(Binary data 12125 bytes, use -b option to extract)",6.9 m Below Sea Level,"41 deg 26' 55.48"" N","71 deg 23' 58.06"" W","(Binary data 936628 bytes, use -b option to extract)",0.006 mm,73.7 deg,4.5 mm (35 mm equivalent: 24.0 mm),"41 deg 26' 55.48"" N, 71 deg 23' 58.06"" W",1.28 m,12.3
C:/Users/Kristopher/Desktop/test_images/DJI_20210121095546_0011_W.JPG,12.19,DJI_20210121095546_0011_W.JPG,C:/Users/Kristopher/Desktop/test_images,9.1 MiB,2021:01:21 10:55:46-05:00,2022:04:16 18:42:03-04:00,2022:04:09 13:48:47-04:00,-rw-rw-rw-,JPEG,jpg,image/jpeg,"Little-endian (Intel, II)",default,DJI,ZH20T,Horizontal (normal),72,72,inches,01.00.02.11,2021-01-21 09:55:46,Co-sited,1/500,2.8,Program AE,100,Recommended Exposure Index,0230,2021-01-21 09:55:46,2021-01-21 09:55:46,"Y, Cb, Cr, -",1/500,2.8,-0.3,2.8,Center-weighted average,Daylight,No Flash,4.5 mm,[minor] Bad MakerNotes directory,0100,sRGB,4056,3040,R98 - DCF basic file (sRGB),0100,Digital Camera,Directly photographed,Auto,Auto,1,24 mm,Standard,None,Normal,Normal,Normal,"(Binary data 4 bytes, use -b option to extract)",1W9DH8R0000038,4.5mm f/2.8,2.3.0.0,North,West,Below Sea Level,RTK,WGS-84,0.9.142,single,JPEG,24974,12327,DJI Meta Data,image/jpg,RtkAlt,-6.919,+13.993,+0.00,+48.10,-89.90,+4.40,+48.10,+6.00,1.6,1.7,0.0,0,0,,50,0.01979,0.01982,0.03740,Normal,21.400,-71.3993988,41.4487877,-7.388,-28.300,7.0,False,False,False,0100,2,Dependent child image,JPEG,Large Thumbnail (VGA equivalent),969393,8596345,0,0,"(Binary data 66 bytes, use -b option to extract)",1,4056,3040,"Baseline DCT, Huffman coding",8,3,YCbCr4:2:0 (2 2),2.8,4056x3040,12.3,5.3,1/500,"(Binary data 12327 bytes, use -b option to extract)",6.9 m Below Sea Level,"41 deg 26' 55.64"" N","71 deg 23' 57.82"" W","(Binary data 969393 bytes, use -b option to extract)",0.006 mm,73.7 deg,4.5 mm (35 mm equivalent: 24.0 mm),"41 deg 26' 55.64"" N, 71 deg 23' 57.82"" W",1.28 m,11.9
C:/Users/Kristopher/Desktop/test_images/DJI_20210121095549_0012_W.JPG,12.19,DJI_20210121095549_0012_W.JPG,C:/Users/Kristopher/Desktop/test_images,9.2 MiB,2021:01:21 10:55:48-05:00,2022:04:16 18:42:03-04:00,2022:04:09 13:48:47-04:00,-rw-rw-rw-,JPEG,jpg,image/jpeg,"Little-endian (Intel, II)",default,DJI,ZH20T,Horizontal (normal),72,72,inches,01.00.02.11,2021-01-21 09:55:49,Co-sited,1/500,2.8,Program AE,100,Recommended Exposure Index,0230,2021-01-21 09:55:49,2021-01-21 09:55:49,"Y, Cb, Cr, -",1/500,2.8,-0.3,2.8,Center-weighted average,Daylight,No Flash,4.5 mm,[minor] Bad MakerNotes directory,0100,sRGB,4056,3040,R98 - DCF basic file (sRGB),0100,Digital Camera,Directly photographed,Auto,Auto,1,24 mm,Standard,None,Normal,Normal,Normal,"(Binary data 4 bytes, use -b option to extract)",1W9DH8R0000038,4.5mm f/2.8,2.3.0.0,North,West,Below Sea Level,RTK,WGS-84,0.9.142,single,JPEG,24974,12050,DJI Meta Data,image/jpg,RtkAlt,-6.925,+13.987,+0.00,+48.10,-89.90,+4.00,+48.20,+6.00,1.5,1.7,0.0,0,0,,50,0.01978,0.01980,0.03733,Normal,21.900,-71.3993378,41.4488297,-7.888,-28.800,7.0,False,False,False,0100,2,Dependent child image,JPEG,Large Thumbnail (VGA equivalent),963303,8669593,0,0,"(Binary data 66 bytes, use -b option to extract)",1,4056,3040,"Baseline DCT, Huffman coding",8,3,YCbCr4:2:0 (2 2),2.8,4056x3040,12.3,5.3,1/500,"(Binary data 12050 bytes, use -b option to extract)",6.9 m Below Sea Level,"41 deg 26' 55.79"" N","71 deg 23' 57.59"" W","(Binary data 963303 bytes, use -b option to extract)",0.006 mm,73.7 deg,4.5 mm (35 mm equivalent: 24.0 mm),"41 deg 26' 55.79"" N, 71 deg 23' 57.59"" W",1.28 m,11.9
C:/Users/Kristopher/Desktop/test_images/DJI_20210121095552_0013_W.JPG,12.19,DJI_20210121095552_0013_W.JPG,C:/Users/Kristopher/Desktop/test_images,9.1 MiB,2021:01:21 10:55:52-05:00,2022:04:16 18:42:03-04:00,2022:04:09 13:48:47-04:00,-rw-rw-rw-,JPEG,jpg,image/jpeg,"Little-endian (Intel, II)",default,DJI,ZH20T,Horizontal (normal),72,72,inches,01.00.02.11,2021-01-21 09:55:52,Co-sited,1/640,2.8,Program AE,100,Recommended Exposure Index,0230,2021-01-21 09:55:52,2021-01-21 09:55:52,"Y, Cb, Cr, -",1/640,2.8,-0.3,2.8,Center-weighted average,Daylight,No Flash,4.5 mm,[minor] Bad MakerNotes directory,0100,sRGB,4056,3040,R98 - DCF basic file (sRGB),0100,Digital Camera,Directly photographed,Auto,Auto,1,24 mm,Standard,None,Normal,Normal,Normal,"(Binary data 4 bytes, use -b option to extract)",1W9DH8R0000038,4.5mm f/2.8,2.3.0.0,North,West,Below Sea Level,RTK,WGS-84,0.9.142,single,JPEG,24974,11956,DJI Meta Data,image/jpg,RtkAlt,-6.918,+13.994,+0.00,+48.10,-89.90,+3.20,+48.10,+5.30,1.5,1.7,0.0,0,0,,50,0.02017,0.02018,0.03763,Normal,21.500,-71.3992691,41.4488754,-7.488,-28.400,7.0,False,False,False,0100,2,Dependent child image,JPEG,Large Thumbnail (VGA equivalent),954169,8551964,0,0,"(Binary data 66 bytes, use -b option to extract)",1,4056,3040,"Baseline DCT, Huffman coding",8,3,YCbCr4:2:0 (2 2),2.8,4056x3040,12.3,5.3,1/640,"(Binary data 11956 bytes, use -b option to extract)",6.9 m Below Sea Level,"41 deg 26' 55.95"" N","71 deg 23' 57.36"" W","(Binary data 954169 bytes, use -b option to extract)",0.006 mm,73.7 deg,4.5 mm (35 mm equivalent: 24.0 mm),"41 deg 26' 55.95"" N, 71 deg 23' 57.36"" W",1.28 m,12.3
C:/Users/Kristopher/Desktop/test_images/DJI_20210121095555_0014_W.JPG,12.19,DJI_20210121095555_0014_W.JPG,C:/Users/Kristopher/Desktop/test_images,8.9 MiB,2021:01:21 10:55:54-05:00,2022:04:16 18:42:03-04:00,2022:04:09 13:48:47-04:00,-rw-rw-rw-,JPEG,jpg,image/jpeg,"Little-endian (Intel, II)",default,DJI,ZH20T,Horizontal (normal),72,72,inches,01.00.02.11,2021-01-21 09:55:55,Co-sited,1/500,2.8,Program AE,100,Recommended Exposure Index,0230,2021-01-21 09:55:55,2021-01-21 09:55:55,"Y, Cb, Cr, -",1/500,2.8,-0.3,2.8,Center-weighted average,Daylight,No Flash,4.5 mm,[minor] Bad MakerNotes directory,0100,sRGB,4056,3040,R98 - DCF basic file (sRGB),0100,Digital Camera,Directly photographed,Auto,Auto,1,24 mm,Standard,None,Normal,Normal,Normal,"(Binary data 4 bytes, use -b option to extract)",1W9DH8R0000038,4.5mm f/2.8,2.3.0.0,North,West,Below Sea Level,RTK,WGS-84,0.9.142,single,JPEG,24974,11789,DJI Meta Data,image/jpg,RtkAlt,-6.896,+14.016,+0.00,+48.10,-89.90,+3.50,+47.90,+5.90,1.6,1.7,0.0,0,0,,50,0.01980,0.01985,0.03726,Normal,20.800,-71.3992004,41.4489174,-6.788,-27.700,7.0,False,False,False,0100,2,Dependent child image,JPEG,Large Thumbnail (VGA equivalent),943458,8424155,0,0,"(Binary data 66 bytes, use -b option to extract)",1,4056,3040,"Baseline DCT, Huffman coding",8,3,YCbCr4:2:0 (2 2),2.8,4056x3040,12.3,5.3,1/500,"(Binary data 11789 bytes, use -b option to extract)",6.8 m Below Sea Level,"41 deg 26' 56.12"" N","71 deg 23' 57.11"" W","(Binary data 943458 bytes, use -b option to extract)",0.006 mm,73.7 deg,4.5 mm (35 mm equivalent: 24.0 mm),"41 deg 26' 56.12"" N, 71 deg 23' 57.11"" W",1.28 m,11.9
C:/Users/Kristopher/Desktop/test_images/DJI_20210121095558_0015_W.JPG,12.19,DJI_20210121095558_0015_W.JPG,C:/Users/Kristopher/Desktop/test_images,8.8 MiB,2021:01:21 10:55:58-05:00,2022:04:16 18:42:03-04:00,2022:04:09 13:48:47-04:00,-rw-rw-rw-,JPEG,jpg,image/jpeg,"Little-endian (Intel, II)",default,DJI,ZH20T,Horizontal (normal),72,72,inches,01.00.02.11,2021-01-21 09:55:58,Co-sited,1/640,2.8,Program AE,100,Recommended Exposure Index,0230,2021-01-21 09:55:58,2021-01-21 09:55:58,"Y, Cb, Cr, -",1/640,2.8,-0.3,2.8,Center-weighted average,Daylight,No Flash,4.5 mm,[minor] Bad MakerNotes directory,0100,sRGB,4056,3040,R98 - DCF basic file (sRGB),0100,Digital Camera,Directly photographed,Auto,Auto,1,24 mm,Standard,None,Normal,Normal,Normal,"(Binary data 4 bytes, use -b option to extract)",1W9DH8R0000038,4.5mm f/2.8,2.3.0.0,North,West,Below Sea Level,RTK,WGS-84,0.9.142,single,JPEG,24974,11740,DJI Meta Data,image/jpg,RtkAlt,-6.916,+13.996,+0.00,+48.10,-90.00,+3.40,+47.80,+5.20,1.5,1.7,0.0,0,0,,50,0.02012,0.02014,0.03741,Normal,19.200,-71.3991394,41.4489632,-5.188,-26.100,7.0,False,False,False,0100,2,Dependent child image,JPEG,Large Thumbnail (VGA equivalent),936206,8331108,0,0,"(Binary data 66 bytes, use -b option to extract)",1,4056,3040,"Baseline DCT, Huffman coding",8,3,YCbCr4:2:0 (2 2),2.8,4056x3040,12.3,5.3,1/640,"(Binary data 11740 bytes, use -b option to extract)",6.9 m Below Sea Level,"41 deg 26' 56.27"" N","71 deg 23' 56.88"" W","(Binary data 936206 bytes, use -b option to extract)",0.006 mm,73.7 deg,4.5 mm (35 mm equivalent: 24.0 mm),"41 deg 26' 56.27"" N, 71 deg 23' 56.88"" W",1.28 m,12.3
C:/Users/Kristopher/Desktop/test_images/DJI_20210121095601_0016_W.JPG,12.19,DJI_20210121095601_0016_W.JPG,C:/Users/Kristopher/Desktop/test_images,8.7 MiB,2021:01:21 10:56:02-05:00,2022:04:16 18:42:03-04:00,2022:04:09 13:48:47-04:00,-rw-rw-rw-,JPEG,jpg,image/jpeg,"Little-endian (Intel, II)",default,DJI,ZH20T,Horizontal (normal),72,72,inches,01.00.02.11,2021-01-21 09:56:01,Co-sited,1/500,2.8,Program AE,100,Recommended Exposure Index,0230,2021-01-21 09:56:01,2021-01-21 09:56:01,"Y, Cb, Cr, -",1/500,2.8,-0.3,2.8,Center-weighted average,Daylight,No Flash,4.5 mm,[minor] Bad MakerNotes directory,0100,sRGB,4056,3040,R98 - DCF basic file (sRGB),0100,Digital Camera,Directly photographed,Auto,Auto,1,24 mm,Standard,None,Normal,Normal,Normal,"(Binary data 4 bytes, use -b option to extract)",1W9DH8R0000038,4.5mm f/2.8,2.3.0.0,North,West,Below Sea Level,RTK,WGS-84,0.9.142,single,JPEG,24974,11824,DJI Meta Data,image/jpg,RtkAlt,-6.894,+14.019,+0.00,+48.10,-90.00,+3.40,+48.00,+5.00,1.5,1.8,0.0,0,0,,50,0.01925,0.01932,0.03666,Normal,20.200,-71.3990707,41.4490089,-6.188,-27.100,7.0,False,False,False,0100,2,Dependent child image,JPEG,Large Thumbnail (VGA equivalent),935034,8224076,0,0,"(Binary data 66 bytes, use -b option to extract)",1,4056,3040,"Baseline DCT, Huffman coding",8,3,YCbCr4:2:0 (2 2),2.8,4056x3040,12.3,5.3,1/500,"(Binary data 11824 bytes, use -b option to extract)",6.8 m Below Sea Level,"41 deg 26' 56.43"" N","71 deg 23' 56.64"" W","(Binary data 935034 bytes, use -b option to extract)",0.006 mm,73.7 deg,4.5 mm (35 mm equivalent: 24.0 mm),"41 deg 26' 56.43"" N, 71 deg 23' 56.64"" W",1.28 m,11.9
C:/Users/Kristopher/Desktop/test_images/DJI_20210121095604_0017_W.JPG,12.19,DJI_20210121095604_0017_W.JPG,C:/Users/Kristopher/Desktop/test_images,8.8 MiB,2021:01:21 10:56:04-05:00,2022:04:16 18:42:03-04:00,2022:04:09 13:48:47-04:00,-rw-rw-rw-,JPEG,jpg,image/jpeg,"Little-endian (Intel, II)",default,DJI,ZH20T,Horizontal (normal),72,72,inches,01.00.02.11,2021-01-21 09:56:04,Co-sited,1/500,2.8,Program AE,100,Recommended Exposure Index,0230,2021-01-21 09:56:04,2021-01-21 09:56:04,"Y, Cb, Cr, -",1/500,2.8,-0.3,2.8,Center-weighted average,Daylight,No Flash,4.5 mm,[minor] Bad MakerNotes directory,0100,sRGB,4056,3040,R98 - DCF basic file (sRGB),0100,Digital Camera,Directly photographed,Auto,Auto,1,24 mm,Standard,None,Normal,Normal,Normal,"(Binary data 4 bytes, use -b option to extract)",1W9DH8R0000038,4.5mm f/2.8,2.3.0.0,North,West,Below Sea Level,RTK,WGS-84,0.9.142,single,JPEG,24974,12058,DJI Meta Data,image/jpg,RtkAlt,-6.923,+13.989,+0.00,+48.10,-90.00,+3.50,+48.10,+5.10,1.5,1.7,0.0,0,0,,50,0.01958,0.01959,0.03684,Normal,21.700,-71.3990021,41.4490509,-7.788,-28.700,7.0,False,False,False,0100,2,Dependent child image,JPEG,Large Thumbnail (VGA equivalent),941453,8288538,0,0,"(Binary data 66 bytes, use -b option to extract)",1,4056,3040,"Baseline DCT, Huffman coding",8,3,YCbCr4:2:0 (2 2),2.8,4056x3040,12.3,5.3,1/500,"(Binary data 12058 bytes, use -b option to extract)",6.9 m Below Sea Level,"41 deg 26' 56.59"" N","71 deg 23' 56.41"" W","(Binary data 941453 bytes, use -b option to extract)",0.006 mm,73.7 deg,4.5 mm (35 mm equivalent: 24.0 mm),"41 deg 26' 56.59"" N, 71 deg 23' 56.41"" W",1.28 m,11.9
C:/Users/Kristopher/Desktop/test_images/DJI_20210121095607_0018_W.JPG,12.19,DJI_20210121095607_0018_W.JPG,C:/Users/Kristopher/Desktop/test_images,9.2 MiB,2021:01:21 10:56:08-05:00,2022:04:16 18:42:03-04:00,2022:04:09 13:48:47-04:00,-rw-rw-rw-,JPEG,jpg,image/jpeg,"Little-endian (Intel, II)",default,DJI,ZH20T,Horizontal (normal),72,72,inches,01.00.02.11,2021-01-21 09:56:07,Co-sited,1/500,2.8,Program AE,100,Recommended Exposure Index,0230,2021-01-21 09:56:07,2021-01-21 09:56:07,"Y, Cb, Cr, -",1/500,2.8,-0.3,2.8,Center-weighted average,Daylight,No Flash,4.5 mm,[minor] Bad MakerNotes directory,0100,sRGB,4056,3040,R98 - DCF basic file (sRGB),0100,Digital Camera,Directly photographed,Auto,Auto,1,24 mm,Standard,None,Normal,Normal,Normal,"(Binary data 4 bytes, use -b option to extract)",1W9DH8R0000038,4.5mm f/2.8,2.3.0.0,North,West,Below Sea Level,RTK,WGS-84,0.9.142,single,JPEG,24974,12493,DJI Meta Data,image/jpg,RtkAlt,-6.934,+13.978,+0.00,+48.10,-90.00,+3.00,+47.60,+5.30,1.5,1.7,0.0,0,0,,50,0.01953,0.01957,0.03685,,,,,,,7.0,False,False,False,0100,2,Dependent child image,JPEG,Large Thumbnail (VGA equivalent),974661,8653437,0,0,"(Binary data 66 bytes, use -b option to extract)",1,4056,3040,"Baseline DCT, Huffman coding",8,3,YCbCr4:2:0 (2 2),2.8,4056x3040,12.3,5.3,1/500,"(Binary data 12493 bytes, use -b option to extract)",6.9 m Below Sea Level,"41 deg 26' 56.75"" N","71 deg 23' 56.18"" W","(Binary data 974661 bytes, use -b option to extract)",0.006 mm,73.7 deg,4.5 mm (35 mm equivalent: 24.0 mm),"41 deg 26' 56.75"" N, 71 deg 23' 56.18"" W",1.28 m,11.9
C:/Users/Kristopher/Desktop/test_images/DJI_20210121095610_0019_W.JPG,12.19,DJI_20210121095610_0019_W.JPG,C:/Users/Kristopher/Desktop/test_images,9.0 MiB,2021:01:21 10:56:10-05:00,2022:04:16 18:42:03-04:00,2022:04:09 13:48:47-04:00,-rw-rw-rw-,JPEG,jpg,image/jpeg,"Little-endian (Intel, II)",default,DJI,ZH20T,Horizontal (normal),72,72,inches,01.00.02.11,2021-01-21 09:56:10,Co-sited,1/500,2.8,Program AE,100,Recommended Exposure Index,0230,2021-01-21 09:56:10,2021-01-21 09:56:10,"Y, Cb, Cr, -",1/500,2.8,-0.3,2.8,Center-weighted average,Daylight,No Flash,4.5 mm,[minor] Bad MakerNotes directory,0100,sRGB,4056,3040,R98 - DCF basic file (sRGB),0100,Digital Camera,Directly photographed,Auto,Auto,1,24 mm,Standard,None,Normal,Normal,Normal,"(Binary data 4 bytes, use -b option to extract)",1W9DH8R0000038,4.5mm f/2.8,2.3.0.0,North,West,Below Sea Level,RTK,WGS-84,0.9.142,single,JPEG,24974,12329,DJI Meta Data,image/jpg,RtkAlt,-6.957,+13.955,+0.00,+48.10,-89.90,+2.60,+47.90,+4.70,1.5,1.7,0.0,0,0,,50,0.01950,0.01958,0.03678,,,,,,,7.0,False,False,False,0100,2,Dependent child image,JPEG,Large Thumbnail (VGA equivalent),955429,8478553,0,0,"(Binary data 66 bytes, use -b option to extract)",1,4056,3040,"Baseline DCT, Huffman coding",8,3,YCbCr4:2:0 (2 2),2.8,4056x3040,12.3,5.3,1/500,"(Binary data 12329 bytes, use -b option to extract)",6.9 m Below Sea Level,"41 deg 26' 56.91"" N","71 deg 23' 55.94"" W","(Binary data 955429 bytes, use -b option to extract)",0.006 mm,73.7 deg,4.5 mm (35 mm equivalent: 24.0 mm),"41 deg 26' 56.91"" N, 71 deg 23' 55.94"" W",1.28 m,11.9
C:/Users/Kristopher/Desktop/test_images/DJI_20210121095613_0020_W.JPG,12.19,DJI_20210121095613_0020_W.JPG,C:/Users/Kristopher/Desktop/test_images,9.0 MiB,2021:01:21 10:56:14-05:00,2022:04:16 18:42:03-04:00,2022:04:09 13:48:47-04:00,-rw-rw-rw-,JPEG,jpg,image/jpeg,"Little-endian (Intel, II)",default,DJI,ZH20T,Horizontal (normal),72,72,inches,01.00.02.11,2021-01-21 09:56:13,Co-sited,1/500,2.8,Program AE,100,Recommended Exposure Index,0230,2021-01-21 09:56:13,2021-01-21 09:56:13,"Y, Cb, Cr, -",1/500,2.8,-0.3,2.8,Center-weighted average,Daylight,No Flash,4.5 mm,[minor] Bad MakerNotes directory,0100,sRGB,4056,3040,R98 - DCF basic file (sRGB),0100,Digital Camera,Directly photographed,Auto,Auto,1,24 mm,Standard,None,Normal,Normal,Normal,"(Binary data 4 bytes, use -b option to extract)",1W9DH8R0000038,4.5mm f/2.8,2.3.0.0,North,West,Below Sea Level,RTK,WGS-84,0.9.142,single,JPEG,24974,12375,DJI Meta Data,image/jpg,RtkAlt,-6.914,+13.998,+0.00,+48.10,-89.90,+3.60,+48.30,+3.70,1.5,1.7,0.0,0,0,,50,0.01944,0.01952,0.03666,,,,,,,7.0,False,False,False,0100,2,Dependent child image,JPEG,Large Thumbnail (VGA equivalent),958469,8456997,0,0,"(Binary data 66 bytes, use -b option to extract)",1,4056,3040,"Baseline DCT, Huffman coding",8,3,YCbCr4:2:0 (2 2),2.8,4056x3040,12.3,5.3,1/500,"(Binary data 12375 bytes, use -b option to extract)",6.9 m Below Sea Level,"41 deg 26' 57.06"" N","71 deg 23' 55.70"" W","(Binary data 958469 bytes, use -b option to extract)",0.006 mm,73.7 deg,4.5 mm (35 mm equivalent: 24.0 mm),"41 deg 26' 57.06"" N, 71 deg 23' 55.70"" W",1.28 m,11.9
C:/Users/Kristopher/Desktop/test_images/DJI_20210121095616_0021_W.JPG,12.19,DJI_20210121095616_0021_W.JPG,C:/Users/Kristopher/Desktop/test_images,8.9 MiB,2021:01:21 10:56:16-05:00,2022:04:16 18:42:03-04:00,2022:04:09 13:48:47-04:00,-rw-rw-rw-,JPEG,jpg,image/jpeg,"Little-endian (Intel, II)",default,DJI,ZH20T,Horizontal (normal),72,72,inches,01.00.02.11,2021-01-21 09:56:16,Co-sited,1/400,2.8,Program AE,100,Recommended Exposure Index,0230,2021-01-21 09:56:16,2021-01-21 09:56:16,"Y, Cb, Cr, -",1/400,2.8,-0.3,2.8,Center-weighted average,Daylight,No Flash,4.5 mm,[minor] Bad MakerNotes directory,0100,sRGB,4056,3040,R98 - DCF basic file (sRGB),0100,Digital Camera,Directly photographed,Auto,Auto,1,24 mm,Standard,None,Normal,Normal,Normal,"(Binary data 4 bytes, use -b option to extract)",1W9DH8R0000038,4.5mm f/2.8,2.3.0.0,North,West,Below Sea Level,RTK,WGS-84,0.9.142,single,JPEG,24974,12467,DJI Meta Data,image/jpg,RtkAlt,-6.952,+13.960,+0.00,+48.10,-89.90,+3.50,+48.20,+3.90,1.6,1.7,0.0,0,0,,50,0.01942,0.01956,0.03674,,,,,,,7.0,False,False,False,0100,2,Dependent child image,JPEG,Large Thumbnail (VGA equivalent),954400,8403369,0,0,"(Binary data 66 bytes, use -b option to extract)",1,4056,3040,"Baseline DCT, Huffman coding",8,3,YCbCr4:2:0 (2 2),2.8,4056x3040,12.3,5.3,1/400,"(Binary data 12467 bytes, use -b option to extract)",6.9 m Below Sea Level,"41 deg 26' 57.22"" N","71 deg 23' 55.48"" W","(Binary data 954400 bytes, use -b option to extract)",0.006 mm,73.7 deg,4.5 mm (35 mm equivalent: 24.0 mm),"41 deg 26' 57.22"" N, 71 deg 23' 55.48"" W",1.28 m,11.6
C:/Users/Kristopher/Desktop/test_images/DJI_20210121095619_0022_W.JPG,12.19,DJI_20210121095619_0022_W.JPG,C:/Users/Kristopher/Desktop/test_images,8.7 MiB,2021:01:21 10:56:20-05:00,2022:04:16 18:42:03-04:00,2022:04:09 13:48:47-04:00,-rw-rw-rw-,JPEG,jpg,image/jpeg,"Little-endian (Intel, II)",default,DJI,ZH20T,Horizontal (normal),72,72,inches,01.00.02.11,2021-01-21 09:56:19,Co-sited,1/400,2.8,Program AE,100,Recommended Exposure Index,0230,2021-01-21 09:56:19,2021-01-21 09:56:19,"Y, Cb, Cr, -",1/400,2.8,-0.3,2.8,Center-weighted average,Daylight,No Flash,4.5 mm,[minor] Bad MakerNotes directory,0100,sRGB,4056,3040,R98 - DCF basic file (sRGB),0100,Digital Camera,Directly photographed,Auto,Auto,1,24 mm,Standard,None,Normal,Normal,Normal,"(Binary data 4 bytes, use -b option to extract)",1W9DH8R0000038,4.5mm f/2.8,2.3.0.0,North,West,Below Sea Level,RTK,WGS-84,0.9.142,single,JPEG,24974,12225,DJI Meta Data,image/jpg,RtkAlt,-6.916,+13.996,+0.00,+48.10,-89.90,+3.40,+48.00,+5.40,1.5,1.7,0.0,0,0,,50,0.01945,0.01954,0.03672,,,,,,,7.0,False,False,False,0100,2,Dependent child image,JPEG,Large Thumbnail (VGA equivalent),943430,8228539,0,0,"(Binary data 66 bytes, use -b option to extract)",1,4056,3040,"Baseline DCT, Huffman coding",8,3,YCbCr4:2:0 (2 2),2.8,4056x3040,12.3,5.3,1/400,"(Binary data 12225 bytes, use -b option to extract)",6.9 m Below Sea Level,"41 deg 26' 57.37"" N","71 deg 23' 55.25"" W","(Binary data 943430 bytes, use -b option to extract)",0.006 mm,73.7 deg,4.5 mm (35 mm equivalent: 24.0 mm),"41 deg 26' 57.37"" N, 71 deg 23' 55.25"" W",1.28 m,11.6
C:/Users/Kristopher/Desktop/test_images/DJI_20210121095622_0023_W.JPG,12.19,DJI_20210121095622_0023_W.JPG,C:/Users/Kristopher/Desktop/test_images,8.6 MiB,2021:01:21 10:56:22-05:00,2022:04:16 18:42:03-04:00,2022:04:09 13:48:47-04:00,-rw-rw-rw-,JPEG,jpg,image/jpeg,"Little-endian (Intel, II)",default,DJI,ZH20T,Horizontal (normal),72,72,inches,01.00.02.11,2021-01-21 09:56:22,Co-sited,1/400,2.8,Program AE,100,Recommended Exposure Index,0230,2021-01-21 09:56:22,2021-01-21 09:56:22,"Y, Cb, Cr, -",1/400,2.8,-0.3,2.8,Center-weighted average,Daylight,No Flash,4.5 mm,[minor] Bad MakerNotes directory,0100,sRGB,4056,3040,R98 - DCF basic file (sRGB),0100,Digital Camera,Directly photographed,Auto,Auto,1,24 mm,Standard,None,Normal,Normal,Normal,"(Binary data 4 bytes, use -b option to extract)",1W9DH8R0000038,4.5mm f/2.8,2.3.0.0,North,West,Below Sea Level,RTK,WGS-84,0.9.142,single,JPEG,24974,12212,DJI Meta Data,image/jpg,RtkAlt,-6.912,+14.000,+0.00,+48.10,-90.00,+3.60,+48.10,+4.40,1.5,1.7,0.0,0,0,,50,0.01939,0.01954,0.03671,,,,,,,7.0,False,False,False,0100,2,Dependent child image,JPEG,Large Thumbnail (VGA equivalent),938717,8074935,0,0,"(Binary data 66 bytes, use -b option to extract)",1,4056,3040,"Baseline DCT, Huffman coding",8,3,YCbCr4:2:0 (2 2),2.8,4056x3040,12.3,5.3,1/400,"(Binary data 12212 bytes, use -b option to extract)",6.9 m Below Sea Level,"41 deg 26' 57.54"" N","71 deg 23' 55.00"" W","(Binary data 938717 bytes, use -b option to extract)",0.006 mm,73.7 deg,4.5 mm (35 mm equivalent: 24.0 mm),"41 deg 26' 57.54"" N, 71 deg 23' 55.00"" W",1.28 m,11.6
C:/Users/Kristopher/Desktop/test_images/DJI_20210121095625_0024_W.JPG,12.19,DJI_20210121095625_0024_W.JPG,C:/Users/Kristopher/Desktop/test_images,8.8 MiB,2021:01:21 10:56:26-05:00,2022:04:16 18:42:03-04:00,2022:04:09 13:48:47-04:00,-rw-rw-rw-,JPEG,jpg,image/jpeg,"Little-endian (Intel, II)",default,DJI,ZH20T,Horizontal (normal),72,72,inches,01.00.02.11,2021-01-21 09:56:25,Co-sited,1/400,2.8,Program AE,100,Recommended Exposure Index,0230,2021-01-21 09:56:25,2021-01-21 09:56:25,"Y, Cb, Cr, -",1/400,2.8,-0.3,2.8,Center-weighted average,Daylight,No Flash,4.5 mm,[minor] Bad MakerNotes directory,0100,sRGB,4056,3040,R98 - DCF basic file (sRGB),0100,Digital Camera,Directly photographed,Auto,Auto,1,24 mm,Standard,None,Normal,Normal,Normal,"(Binary data 4 bytes, use -b option to extract)",1W9DH8R0000038,4.5mm f/2.8,2.3.0.0,North,West,Below Sea Level,RTK,WGS-84,0.9.142,single,JPEG,24974,12440,DJI Meta Data,image/jpg,RtkAlt,-6.903,+14.009,+0.00,+48.10,-90.00,+3.00,+48.00,+4.70,1.5,1.7,0.0,0,0,,50,0.01942,0.01958,0.03673,,,,,,,7.0,False,False,False,0100,2,Dependent child image,JPEG,Large Thumbnail (VGA equivalent),958114,8236166,0,0,"(Binary data 66 bytes, use -b option to extract)",1,4056,3040,"Baseline DCT, Huffman coding",8,3,YCbCr4:2:0 (2 2),2.8,4056x3040,12.3,5.3,1/400,"(Binary data 12440 bytes, use -b option to extract)",6.9 m Below Sea Level,"41 deg 26' 57.70"" N","71 deg 23' 54.76"" W","(Binary data 958114 bytes, use -b option to extract)",0.006 mm,73.7 deg,4.5 mm (35 mm equivalent: 24.0 mm),"41 deg 26' 57.70"" N, 71 deg 23' 54.76"" W",1.28 m,11.6
C:/Users/Kristopher/Desktop/test_images/DJI_20210121095628_0025_W.JPG,12.19,DJI_20210121095628_0025_W.JPG,C:/Users/Kristopher/Desktop/test_images,8.8 MiB,2021:01:21 10:56:28-05:00,2022:04:16 18:42:03-04:00,2022:04:09 13:48:47-04:00,-rw-rw-rw-,JPEG,jpg,image/jpeg,"Little-endian (Intel, II)",default,DJI,ZH20T,Horizontal (normal),72,72,inches,01.00.02.11,2021-01-21 09:56:28,Co-sited,1/400,2.8,Program AE,100,Recommended Exposure Index,0230,2021-01-21 09:56:28,2021-01-21 09:56:28,"Y, Cb, Cr, -",1/400,2.8,-0.3,2.8,Center-weighted average,Daylight,No Flash,4.5 mm,[minor] Bad MakerNotes directory,0100,sRGB,4056,3040,R98 - DCF basic file (sRGB),0100,Digital Camera,Directly photographed,Auto,Auto,1,24 mm,Standard,None,Normal,Normal,Normal,"(Binary data 4 bytes, use -b option to extract)",1W9DH8R0000038,4.5mm f/2.8,2.3.0.0,North,West,Below Sea Level,RTK,WGS-84,0.9.142,single,JPEG,24974,12729,DJI Meta Data,image/jpg,RtkAlt,-6.896,+14.016,+0.00,+48.10,-90.00,+3.20,+48.10,+5.20,1.5,1.7,0.0,0,0,,50,0.01944,0.01955,0.03670,,,,,,,7.0,False,False,False,0100,2,Dependent child image,JPEG,Large Thumbnail (VGA equivalent),968920,8307621,0,0,"(Binary data 66 bytes, use -b option to extract)",1,4056,3040,"Baseline DCT, Huffman coding",8,3,YCbCr4:2:0 (2 2),2.8,4056x3040,12.3,5.3,1/400,"(Binary data 12729 bytes, use -b option to extract)",6.8 m Below Sea Level,"41 deg 26' 57.86"" N","71 deg 23' 54.53"" W","(Binary data 968920 bytes, use -b option to extract)",0.006 mm,73.7 deg,4.5 mm (35 mm equivalent: 24.0 mm),"41 deg 26' 57.86"" N, 71 deg 23' 54.53"" W",1.28 m,11.6
C:/Users/Kristopher/Desktop/test_images/DJI_20210121095631_0026_W.JPG,12.19,DJI_20210121095631_0026_W.JPG,C:/Users/Kristopher/Desktop/test_images,8.8 MiB,2021:01:21 10:56:32-05:00,2022:04:16 18:42:03-04:00,2022:04:09 13:48:47-04:00,-rw-rw-rw-,JPEG,jpg,image/jpeg,"Little-endian (Intel, II)",default,DJI,ZH20T,Horizontal (normal),72,72,inches,01.00.02.11,2021-01-21 09:56:31,Co-sited,1/400,2.8,Program AE,100,Recommended Exposure Index,0230,2021-01-21 09:56:31,2021-01-21 09:56:31,"Y, Cb, Cr, -",1/400,2.8,-0.3,2.8,Center-weighted average,Daylight,No Flash,4.5 mm,[minor] Bad MakerNotes directory,0100,sRGB,4056,3040,R98 - DCF basic file (sRGB),0100,Digital Camera,Directly photographed,Auto,Auto,1,24 mm,Standard,None,Normal,Normal,Normal,"(Binary data 4 bytes, use -b option to extract)",1W9DH8R0000038,4.5mm f/2.8,2.3.0.0,North,West,Below Sea Level,RTK,WGS-84,0.9.142,single,JPEG,24974,12662,DJI Meta Data,image/jpg,RtkAlt,-6.888,+14.025,+0.00,+48.10,-90.00,+3.00,+48.10,+4.20,1.5,1.7,0.0,0,0,,50,0.01938,0.01946,0.03648,,,,,,,7.0,False,False,False,0100,2,Dependent child image,JPEG,Large Thumbnail (VGA equivalent),963581,8305509,0,0,"(Binary data 66 bytes, use -b option to extract)",1,4056,3040,"Baseline DCT, Huffman coding",8,3,YCbCr4:2:0 (2 2),2.8,4056x3040,12.3,5.3,1/400,"(Binary data 12662 bytes, use -b option to extract)",6.8 m Below Sea Level,"41 deg 26' 58.01"" N","71 deg 23' 54.30"" W","(Binary data 963581 bytes, use -b option to extract)",0.006 mm,73.7 deg,4.5 mm (35 mm equivalent: 24.0 mm),"41 deg 26' 58.01"" N, 71 deg 23' 54.30"" W",1.28 m,11.6
C:/Users/Kristopher/Desktop/test_images/DJI_20210121095635_0027_W.JPG,12.19,DJI_20210121095635_0027_W.JPG,C:/Users/Kristopher/Desktop/test_images,8.7 MiB,2021:01:21 10:56:34-05:00,2022:04:16 18:42:03-04:00,2022:04:09 13:48:47-04:00,-rw-rw-rw-,JPEG,jpg,image/jpeg,"Little-endian (Intel, II)",default,DJI,ZH20T,Horizontal (normal),72,72,inches,01.00.02.11,2021-01-21 09:56:35,Co-sited,1/500,2.8,Program AE,100,Recommended Exposure Index,0230,2021-01-21 09:56:35,2021-01-21 09:56:35,"Y, Cb, Cr, -",1/500,2.8,-0.3,2.8,Center-weighted average,Daylight,No Flash,4.5 mm,[minor] Bad MakerNotes directory,0100,sRGB,4056,3040,R98 - DCF basic file (sRGB),0100,Digital Camera,Directly photographed,Auto,Auto,1,24 mm,Standard,None,Normal,Normal,Normal,"(Binary data 4 bytes, use -b option to extract)",1W9DH8R0000038,4.5mm f/2.8,2.3.0.0,North,West,Below Sea Level,RTK,WGS-84,0.9.142,single,JPEG,24974,12234,DJI Meta Data,image/jpg,RtkAlt,-6.885,+14.027,+0.00,+48.10,-90.00,+3.00,+48.00,+4.60,1.5,1.7,0.0,0,0,,50,0.01932,0.01944,0.03651,,,,,,,7.0,False,False,False,0100,2,Dependent child image,JPEG,Large Thumbnail (VGA equivalent),946205,8173872,0,0,"(Binary data 66 bytes, use -b option to extract)",1,4056,3040,"Baseline DCT, Huffman coding",8,3,YCbCr4:2:0 (2 2),2.8,4056x3040,12.3,5.3,1/500,"(Binary data 12234 bytes, use -b option to extract)",6.8 m Below Sea Level,"41 deg 26' 58.17"" N","71 deg 23' 54.06"" W","(Binary data 946205 bytes, use -b option to extract)",0.006 mm,73.7 deg,4.5 mm (35 mm equivalent: 24.0 mm),"41 deg 26' 58.17"" N, 71 deg 23' 54.06"" W",1.28 m,11.9
C:/Users/Kristopher/Desktop/test_images/DJI_20210121095638_0028_W.JPG,12.19,DJI_20210121095638_0028_W.JPG,C:/Users/Kristopher/Desktop/test_images,8.7 MiB,2021:01:21 10:56:38-05:00,2022:04:16 18:42:03-04:00,2022:04:09 13:48:47-04:00,-rw-rw-rw-,JPEG,jpg,image/jpeg,"Little-endian (Intel, II)",default,DJI,ZH20T,Horizontal (normal),72,72,inches,01.00.02.11,2021-01-21 09:56:38,Co-sited,1/500,2.8,Program AE,100,Recommended Exposure Index,0230,2021-01-21 09:56:38,2021-01-21 09:56:38,"Y, Cb, Cr, -",1/500,2.8,-0.3,2.8,Center-weighted average,Daylight,No Flash,4.5 mm,[minor] Bad MakerNotes directory,0100,sRGB,4056,3040,R98 - DCF basic file (sRGB),0100,Digital Camera,Directly photographed,Auto,Auto,1,24 mm,Standard,None,Normal,Normal,Normal,"(Binary data 4 bytes, use -b option to extract)",1W9DH8R0000038,4.5mm f/2.8,2.3.0.0,North,West,Below Sea Level,RTK,WGS-84,0.9.142,single,JPEG,24974,12328,DJI Meta Data,image/jpg,RtkAlt,-6.922,+13.991,+0.00,+48.10,-90.00,+3.20,+48.10,+4.10,1.5,1.7,0.0,0,0,,50,0.01935,0.01943,0.03643,,,,,,,7.0,False,False,False,0100,2,Dependent child image,JPEG,Large Thumbnail (VGA equivalent),949730,8194505,0,0,"(Binary data 66 bytes, use -b option to extract)",1,4056,3040,"Baseline DCT, Huffman coding",8,3,YCbCr4:2:0 (2 2),2.8,4056x3040,12.3,5.3,1/500,"(Binary data 12328 bytes, use -b option to extract)",6.9 m Below Sea Level,"41 deg 26' 58.33"" N","71 deg 23' 53.82"" W","(Binary data 949730 bytes, use -b option to extract)",0.006 mm,73.7 deg,4.5 mm (35 mm equivalent: 24.0 mm),"41 deg 26' 58.33"" N, 71 deg 23' 53.82"" W",1.28 m,11.9
C:/Users/Kristopher/Desktop/test_images/DJI_20210121095641_0029_W.JPG,12.19,DJI_20210121095641_0029_W.JPG,C:/Users/Kristopher/Desktop/test_images,8.9 MiB,2021:01:21 10:56:40-05:00,2022:04:16 18:42:03-04:00,2022:04:09 13:48:48-04:00,-rw-rw-rw-,JPEG,jpg,image/jpeg,"Little-endian (Intel, II)",default,DJI,ZH20T,Horizontal (normal),72,72,inches,01.00.02.11,2021-01-21 09:56:41,Co-sited,1/400,2.8,Program AE,100,Recommended Exposure Index,0230,2021-01-21 09:56:41,2021-01-21 09:56:41,"Y, Cb, Cr, -",1/400,2.8,-0.3,2.8,Center-weighted average,Daylight,No Flash,4.5 mm,[minor] Bad MakerNotes directory,0100,sRGB,4056,3040,R98 - DCF basic file (sRGB),0100,Digital Camera,Directly photographed,Auto,Auto,1,24 mm,Standard,None,Normal,Normal,Normal,"(Binary data 4 bytes, use -b option to extract)",1W9DH8R0000038,4.5mm f/2.8,2.3.0.0,North,West,Below Sea Level,RTK,WGS-84,0.9.142,single,JPEG,24974,12594,DJI Meta Data,image/jpg,RtkAlt,-6.933,+13.979,+0.00,+48.10,-90.00,+3.10,+48.30,+4.70,1.5,1.7,0.0,0,0,,50,0.01935,0.01943,0.03641,,,,,,,7.0,False,False,False,0100,2,Dependent child image,JPEG,Large Thumbnail (VGA equivalent),965717,8353224,0,0,"(Binary data 66 bytes, use -b option to extract)",1,4056,3040,"Baseline DCT, Huffman coding",8,3,YCbCr4:2:0 (2 2),2.8,4056x3040,12.3,5.3,1/400,"(Binary data 12594 bytes, use -b option to extract)",6.9 m Below Sea Level,"41 deg 26' 58.49"" N","71 deg 23' 53.59"" W","(Binary data 965717 bytes, use -b option to extract)",0.006 mm,73.7 deg,4.5 mm (35 mm equivalent: 24.0 mm),"41 deg 26' 58.49"" N, 71 deg 23' 53.59"" W",1.28 m,11.6
C:/Users/Kristopher/Desktop/test_images/DJI_20210121095644_0030_W.JPG,12.19,DJI_20210121095644_0030_W.JPG,C:/Users/Kristopher/Desktop/test_images,9.3 MiB,2021:01:21 10:56:44-05:00,2022:04:16 18:42:03-04:00,2022:04:09 13:48:48-04:00,-rw-rw-rw-,JPEG,jpg,image/jpeg,"Little-endian (Intel, II)",default,DJI,ZH20T,Horizontal (normal),72,72,inches,01.00.02.11,2021-01-21 09:56:44,Co-sited,1/320,2.8,Program AE,100,Recommended Exposure Index,0230,2021-01-21 09:56:44,2021-01-21 09:56:44,"Y, Cb, Cr, -",1/320,2.8,-0.3,2.8,Center-weighted average,Daylight,No Flash,4.5 mm,[minor] Bad MakerNotes directory,0100,sRGB,4056,3040,R98 - DCF basic file (sRGB),0100,Digital Camera,Directly photographed,Auto,Auto,1,24 mm,Standard,None,Normal,Normal,Normal,"(Binary data 4 bytes, use -b option to extract)",1W9DH8R0000038,4.5mm f/2.8,2.3.0.0,North,West,Below Sea Level,RTK,WGS-84,0.9.142,single,JPEG,24974,13214,DJI Meta Data,image/jpg,RtkAlt,-6.934,+13.979,+0.00,+48.10,-90.00,+2.40,+48.20,+3.80,1.5,1.8,0.0,0,0,,50,0.01946,0.01949,0.03662,,,,,,,7.0,False,False,False,0100,2,Dependent child image,JPEG,Large Thumbnail (VGA equivalent),1006142,8744381,0,0,"(Binary data 66 bytes, use -b option to extract)",1,4056,3040,"Baseline DCT, Huffman coding",8,3,YCbCr4:2:0 (2 2),2.8,4056x3040,12.3,5.3,1/320,"(Binary data 13214 bytes, use -b option to extract)",6.9 m Below Sea Level,"41 deg 26' 58.65"" N","71 deg 23' 53.35"" W","(Binary data 1006142 bytes, use -b option to extract)",0.006 mm,73.7 deg,4.5 mm (35 mm equivalent: 24.0 mm),"41 deg 26' 58.65"" N, 71 deg 23' 53.35"" W",1.28 m,11.3
C:/Users/Kristopher/Desktop/test_images/DJI_20210121095647_0031_W.JPG,12.19,DJI_20210121095647_0031_W.JPG,C:/Users/Kristopher/Desktop/test_images,9.5 MiB,2021:01:21 10:56:46-05:00,2022:04:16 18:42:03-04:00,2022:04:09 13:48:48-04:00,-rw-rw-rw-,JPEG,jpg,image/jpeg,"Little-endian (Intel, II)",default,DJI,ZH20T,Horizontal (normal),72,72,inches,01.00.02.11,2021-01-21 09:56:47,Co-sited,1/250,2.8,Program AE,100,Recommended Exposure Index,0230,2021-01-21 09:56:47,2021-01-21 09:56:47,"Y, Cb, Cr, -",1/250,2.8,-0.3,2.8,Center-weighted average,Daylight,No Flash,4.5 mm,[minor] Bad MakerNotes directory,0100,sRGB,4056,3040,R98 - DCF basic file (sRGB),0100,Digital Camera,Directly photographed,Auto,Auto,1,24 mm,Standard,None,Normal,Normal,Normal,"(Binary data 4 bytes, use -b option to extract)",1W9DH8R0000038,4.5mm f/2.8,2.3.0.0,North,West,Below Sea Level,RTK,WGS-84,0.9.142,single,JPEG,24974,13396,DJI Meta Data,image/jpg,RtkAlt,-6.893,+14.020,+0.00,+48.10,-90.00,+3.20,+47.80,+5.40,1.6,1.7,0.0,0,0,,50,0.01932,0.01940,0.03635,,,,,,,7.0,False,False,False,0100,2,Dependent child image,JPEG,Large Thumbnail (VGA equivalent),1025560,8962325,0,0,"(Binary data 66 bytes, use -b option to extract)",1,4056,3040,"Baseline DCT, Huffman coding",8,3,YCbCr4:2:0 (2 2),2.8,4056x3040,12.3,5.3,1/250,"(Binary data 13396 bytes, use -b option to extract)",6.8 m Below Sea Level,"41 deg 26' 58.81"" N","71 deg 23' 53.11"" W","(Binary data 1025560 bytes, use -b option to extract)",0.006 mm,73.7 deg,4.5 mm (35 mm equivalent: 24.0 mm),"41 deg 26' 58.81"" N, 71 deg 23' 53.11"" W",1.28 m,10.9
C:/Users/Kristopher/Desktop/test_images/DJI_20210121095650_0032_W.JPG,12.19,DJI_20210121095650_0032_W.JPG,C:/Users/Kristopher/Desktop/test_images,9.3 MiB,2021:01:21 10:56:50-05:00,2022:04:16 18:42:03-04:00,2022:04:09 13:48:48-04:00,-rw-rw-rw-,JPEG,jpg,image/jpeg,"Little-endian (Intel, II)",default,DJI,ZH20T,Horizontal (normal),72,72,inches,01.00.02.11,2021-01-21 09:56:50,Co-sited,1/250,2.8,Program AE,100,Recommended Exposure Index,0230,2021-01-21 09:56:50,2021-01-21 09:56:50,"Y, Cb, Cr, -",1/250,2.8,-0.3,2.8,Center-weighted average,Daylight,No Flash,4.5 mm,[minor] Bad MakerNotes directory,0100,sRGB,4056,3040,R98 - DCF basic file (sRGB),0100,Digital Camera,Directly photographed,Auto,Auto,1,24 mm,Standard,None,Normal,Normal,Normal,"(Binary data 4 bytes, use -b option to extract)",1W9DH8R0000038,4.5mm f/2.8,2.3.0.0,North,West,Below Sea Level,RTK,WGS-84,0.9.142,single,JPEG,24974,12999,DJI Meta Data,image/jpg,RtkAlt,-6.941,+13.971,+0.00,+48.10,-90.00,+3.60,+47.90,+5.00,1.5,1.7,0.0,0,0,,50,0.01935,0.01941,0.03641,,,,,,,7.0,False,False,False,0100,2,Dependent child image,JPEG,Large Thumbnail (VGA equivalent),1003524,8763793,0,0,"(Binary data 66 bytes, use -b option to extract)",1,4056,3040,"Baseline DCT, Huffman coding",8,3,YCbCr4:2:0 (2 2),2.8,4056x3040,12.3,5.3,1/250,"(Binary data 12999 bytes, use -b option to extract)",6.9 m Below Sea Level,"41 deg 26' 58.97"" N","71 deg 23' 52.88"" W","(Binary data 1003524 bytes, use -b option to extract)",0.006 mm,73.7 deg,4.5 mm (35 mm equivalent: 24.0 mm),"41 deg 26' 58.97"" N, 71 deg 23' 52.88"" W",1.28 m,10.9
C:/Users/Kristopher/Desktop/test_images/DJI_20210121095653_0033_W.JPG,12.19,DJI_20210121095653_0033_W.JPG,C:/Users/Kristopher/Desktop/test_images,9.4 MiB,2021:01:21 10:56:54-05:00,2022:04:16 18:42:03-04:00,2022:04:09 13:48:47-04:00,-rw-rw-rw-,JPEG,jpg,image/jpeg,"Little-endian (Intel, II)",default,DJI,ZH20T,Horizontal (normal),72,72,inches,01.00.02.11,2021-01-21 09:56:53,Co-sited,1/320,2.8,Program AE,100,Recommended Exposure Index,0230,2021-01-21 09:56:53,2021-01-21 09:56:53,"Y, Cb, Cr, -",1/320,2.8,-0.3,2.8,Center-weighted average,Daylight,No Flash,4.5 mm,[minor] Bad MakerNotes directory,0100,sRGB,4056,3040,R98 - DCF basic file (sRGB),0100,Digital Camera,Directly photographed,Auto,Auto,1,24 mm,Standard,None,Normal,Normal,Normal,"(Binary data 4 bytes, use -b option to extract)",1W9DH8R0000038,4.5mm f/2.8,2.3.0.0,North,West,Below Sea Level,RTK,WGS-84,0.9.142,single,JPEG,24974,12846,DJI Meta Data,image/jpg,RtkAlt,-6.922,+13.990,+0.00,+48.10,-90.00,+3.80,+47.90,+4.50,1.5,1.8,0.0,0,0,,50,0.01974,0.01975,0.03661,,,,,,,7.0,False,False,False,0100,2,Dependent child image,JPEG,Large Thumbnail (VGA equivalent),1000857,8838058,0,0,"(Binary data 66 bytes, use -b option to extract)",1,4056,3040,"Baseline DCT, Huffman coding",8,3,YCbCr4:2:0 (2 2),2.8,4056x3040,12.3,5.3,1/320,"(Binary data 12846 bytes, use -b option to extract)",6.9 m Below Sea Level,"41 deg 26' 59.13"" N","71 deg 23' 52.64"" W","(Binary data 1000857 bytes, use -b option to extract)",0.006 mm,73.7 deg,4.5 mm (35 mm equivalent: 24.0 mm),"41 deg 26' 59.13"" N, 71 deg 23' 52.64"" W",1.28 m,11.3
